City,Country,Date,Lat,Lng,Max Temp,Wind Speed,Cloudiness,Humidity
Hermanus,ZA,1592405778,-34.42,19.23,294.82,1.46,0,49
Ponta do Sol,PT,1592405790,32.67,-17.1,296.15,2.1,40,78
Mar del Plata,AR,1592405540,-38.0,-57.56,290.15,2.6,75,93
Katsuura,JP,1592405889,35.13,140.3,295.15,2.1,75,83
Manono,CD,1592406345,-7.3,27.42,303.39,2.97,0,24
Albany,US,1592405760,42.6,-73.97,297.59,1.13,0,47
Machalí,CL,1592405881,-34.18,-70.67,282.15,1.29,90,100
Lompoc,US,1592405779,34.64,-120.46,284.15,2.6,0,87
Khatanga,RU,1592405524,71.97,102.5,284.92,2.28,100,60
Hithadhoo,MV,1592405788,-0.6,73.08,302.64,2.74,67,71
Avarua,CK,1592405515,-21.21,-159.78,295.15,3.6,23,64
Rikitea,PF,1592405526,-23.12,-134.97,297.16,6.91,52,80
Gazli,UZ,1592406348,40.13,63.45,302.6,5.26,0,14
Punta Arenas,CL,1592405678,-53.15,-70.92,272.15,3.1,0,92
Tiksi,RU,1592405765,71.69,128.87,282.31,1.84,100,90
Yellowknife,CA,1592405523,62.46,-114.35,283.71,4.1,40,61
Faanui,PF,1592405818,-16.48,-151.75,299.81,5.05,100,81
Hamura,JP,1592406349,35.76,139.31,294.82,3.1,75,88
Peniche,PT,1592406349,39.36,-9.38,295.93,4.47,0,69
Bang Mun Nak,TH,1592406349,16.03,100.38,297.5,5.49,100,93
Bluff,NZ,1592405757,-46.6,168.33,277.04,1.34,52,83
Riyadh,SA,1592406350,24.69,46.72,316.15,6.7,2,8
Tessalit,ML,1592406350,20.2,1.01,317.56,4.29,0,6
Frankfurt am Main,DE,1592406209,50.12,8.68,297.15,5.7,40,53
Hobart,AU,1592405723,-42.88,147.33,277.04,3.6,0,81
Tuktoyaktuk,CA,1592405760,69.45,-133.04,284.15,1.0,90,87
Farafangana,MG,1592406351,-22.82,47.83,292.88,3.9,83,72
Mataura,NZ,1592405780,-46.19,168.86,277.04,1.34,97,83
Portobelo,PA,1592406352,9.55,-79.65,304.26,1.5,20,79
Saint-Philippe,RE,1592405859,-21.36,55.77,292.15,7.7,75,93
Tarauacá,BR,1592406352,-8.16,-70.77,303.5,1.18,0,51
Villanueva de la Serena,ES,1592406352,38.98,-5.8,298.71,3.58,0,34
Shimoda,JP,1592405798,34.67,138.95,290.37,2.26,100,92
Lavrentiya,RU,1592405793,65.58,-171.0,280.3,0.51,51,73
Marquette,US,1592406353,46.53,-87.63,299.26,3.1,5,56
Pangkalanbuun,ID,1592406353,-2.68,111.62,297.36,1.38,80,97
Sakakah,SA,1592405848,29.97,40.21,312.15,7.2,0,9
Esperance,AU,1592405896,-33.87,121.9,289.15,6.7,90,82
El Alto,PE,1592406109,-4.27,-81.21,295.15,11.3,30,73
Nanortalik,GL,1592405554,60.14,-45.24,277.18,3.27,21,76
Atuona,PF,1592405765,-9.8,-139.03,299.82,7.06,65,76
Quatre Cocos,MU,1592405842,-20.21,57.76,294.15,7.7,75,88
Dikson,RU,1592405778,73.51,80.55,273.37,0.99,89,93
Nova Olímpia,BR,1592406355,-14.8,-57.29,304.22,3.92,0,39
Jamestown,US,1592406356,42.1,-79.24,294.82,2.1,1,60
Satun,TH,1592406356,6.83,100.0,302.15,2.6,90,100
Hamilton,US,1592406061,39.18,-84.53,298.15,3.08,1,56
Saskylakh,RU,1592405770,71.92,114.08,285.47,3.49,0,65
Goderich,CA,1592406061,43.75,-81.72,297.04,1.18,0,81
Berlevåg,NO,1592405831,70.86,29.09,282.15,2.6,20,66
Vaini,TO,1592405522,-21.2,-175.2,295.15,5.1,20,78
Busselton,AU,1592405774,-33.65,115.33,287.59,9.29,43,51
George Town,MY,1592405492,5.41,100.34,302.15,1.5,20,88
Terekli-Mekteb,RU,1592406358,44.17,45.87,301.04,7.69,98,33
Lebu,CL,1592405780,-37.62,-73.65,284.26,2.94,100,91
Ahipara,NZ,1592405797,-35.17,173.17,288.47,5.79,100,91
Ancud,CL,1592405607,-41.87,-73.82,283.71,2.1,20,100
Oranjemund,NA,1592405857,-28.55,16.43,296.99,7.42,5,22
Port Alfred,ZA,1592405565,-33.59,26.89,290.37,0.89,0,84
Ushuaia,AR,1592405758,-54.8,-68.3,277.15,4.1,40,85
Yokadouma,CM,1592406360,3.52,15.05,296.0,0.82,100,95
Kavaratti,IN,1592406360,10.57,72.64,302.69,8.29,100,79
Butaritari,KI,1592406361,3.07,172.79,301.61,6.64,6,76
Sambava,MG,1592405765,-14.27,50.17,296.08,8.81,49,66
Bétaré Oya,CM,1592406361,5.6,14.08,297.1,1.0,99,90
Upernavik,GL,1592405784,72.79,-56.15,274.01,1.63,0,90
Bālurghāt,IN,1592406362,25.22,88.77,301.51,1.01,100,84
Bathurst,AU,1592406185,-33.42,149.58,280.93,2.98,31,86
Souillac,MU,1592405777,-20.52,57.52,294.15,7.7,75,88
Qaanaaq,GL,1592406362,77.48,-69.36,273.71,4.23,68,92
Ilulissat,GL,1592406363,69.22,-51.1,277.15,2.6,75,69
Puerto Ayora,EC,1592406363,-0.74,-90.35,295.37,3.1,75,94
Lubango,AO,1592406363,-14.92,13.49,295.05,2.55,0,23
Bålsta,SE,1592406363,59.57,17.53,291.48,2.6,75,93
Bambous Virieux,MU,1592405817,-20.34,57.76,294.15,7.7,75,88
Barrow,US,1592405492,71.29,-156.79,275.15,6.2,1,80
Avera,US,1592405597,33.19,-82.53,293.15,2.6,90,77
Talcahuano,CL,1592406364,-36.72,-73.12,284.15,2.6,90,100
Lewistown,US,1592406365,40.6,-77.57,295.15,3.6,1,49
Kapaa,US,1592405524,22.08,-159.32,295.15,2.1,40,88
Mahébourg,MU,1592405538,-20.41,57.7,294.15,7.7,75,88
Norman Wells,CA,1592406366,65.28,-126.83,290.15,3.1,20,67
Rūdbār,AF,1592406366,30.15,62.6,312.17,4.73,0,7
Aktau,KZ,1592406366,43.65,51.2,303.15,4.0,27,20
Chui,UY,1592405559,-33.7,-53.46,293.78,6.48,100,74
Caconda,AO,1592406367,-13.73,15.07,296.5,2.93,0,21
Tasiilaq,GL,1592405825,65.61,-37.64,277.15,14.9,75,86
Broken Hill,AU,1592405855,-31.95,141.43,282.15,3.6,0,66
Makkah al Mukarramah,SA,1592406271,21.43,39.83,311.64,7.9,0,13
Magaria,NE,1592406368,13.0,8.91,312.77,1.76,1,17
Esim,GH,1592406368,4.87,-2.24,299.4,6.73,95,83
Egvekinot,RU,1592406369,66.32,-179.17,284.79,0.81,2,52
Lüderitz,NA,1592405839,-26.65,15.16,305.15,3.6,0,8
Svetlaya,RU,1592406369,46.54,138.33,281.6,3.29,100,90
Romans-sur-Isère,FR,1592406369,45.05,5.06,297.15,2.6,2,44
Yar-Sale,RU,1592405891,66.83,70.83,281.91,6.1,64,50
Tuyen Quang,VN,1592406370,21.82,105.22,301.32,1.58,88,79
Hualmay,PE,1592405864,-11.1,-77.61,292.28,4.07,30,71
Vostok,RU,1592405783,46.49,135.88,280.87,0.73,100,100
Baruun-Urt,MN,1592406371,46.68,113.28,292.37,2.95,47,63
Isangel,VU,1592405846,-19.55,169.27,295.52,4.65,73,83
Geraldton,AU,1592405794,-28.77,114.6,292.15,8.2,90,77
Kérouané,GN,1592406372,9.27,-9.02,304.83,1.02,10,61
Pisco,PE,1592405859,-13.7,-76.22,292.15,3.1,20,72
Kenai,US,1592406372,60.55,-151.26,283.71,4.6,90,87
Thompson,CA,1592405804,55.74,-97.86,278.15,6.2,90,93
Saint Paul Harbor,US,1592405780,57.79,-152.41,283.15,10.3,90,87
Sioux Lookout,CA,1592405691,50.1,-91.92,298.15,5.1,20,57
La Ronge,CA,1592406274,55.1,-105.28,281.15,6.7,90,87
Port-Gentil,GA,1592405848,-0.72,8.78,300.15,4.6,40,78
Biltine,TD,1592406374,14.53,20.92,313.85,4.41,0,7
Ostrovnoy,RU,1592405819,68.05,39.51,280.04,3.62,80,69
Reinosa,ES,1592406374,43.0,-4.14,292.15,4.1,40,68
Bathsheba,BB,1592405821,13.22,-59.52,304.15,10.8,40,66
Lagoa,PT,1592405825,39.05,-27.98,290.44,5.42,18,82
Rolla,US,1592406375,37.95,-91.77,297.04,3.6,1,68
Cape Town,ZA,1592405801,-33.93,18.42,297.04,3.1,0,31
Inhambane,MZ,1592406376,-23.86,35.38,291.15,2.6,75,100
Nhulunbuy,AU,1592406376,-12.23,136.77,298.15,4.6,40,78
Fortuna,US,1592405783,40.6,-124.16,286.48,1.5,90,93
Port Hardy,CA,1592406142,50.7,-127.42,284.15,2.6,75,87
Severo-Kuril'sk,RU,1592406377,50.68,156.12,278.84,2.42,100,91
Erzin,TR,1592406378,36.96,36.2,298.15,3.58,0,76
Torata,PE,1592406378,-17.08,-70.84,291.33,2.63,0,30
Nikolskoye,RU,1592405802,59.7,30.79,299.15,4.0,40,54
Palu,ID,1592406378,-0.89,119.87,297.8,0.98,74,81
Yanji,CN,1592406379,42.91,129.51,287.89,1.48,22,91
Tiruchirappalli,IN,1592406379,10.82,78.68,303.15,4.1,75,66
Castro,BR,1592405789,-24.79,-50.01,291.82,3.42,92,73
Khandyga,RU,1592406380,62.67,135.6,288.35,1.08,0,52
Gummidipundi,IN,1592406367,13.4,80.15,305.15,5.1,40,70
Biri,PH,1592406380,12.68,124.36,301.49,2.58,100,80
Port Elizabeth,ZA,1592406381,-33.92,25.57,291.15,4.1,0,63
Galesong,ID,1592405805,-5.32,119.37,298.15,0.5,20,100
Hilo,US,1592406381,19.73,-155.09,295.15,2.6,90,83
Port Charlotte,US,1592406379,26.98,-82.09,303.71,2.1,1,65
Yangi Marg`ilon,UZ,1592406382,40.43,71.72,299.15,2.1,100,26
Korla,CN,1592406382,41.76,86.15,299.82,0.89,37,57
Shakhovskaya,RU,1592406383,56.03,35.51,300.56,1.0,32,66
Ajdabiya,LY,1592406383,30.76,20.23,298.7,7.96,0,51
Mādhogarh,IN,1592406383,26.28,79.19,311.41,4.59,97,29
Novoaleksandrovsk,RU,1592406383,45.49,41.22,299.42,4.36,83,66
Bengkulu,ID,1592405904,-3.8,102.27,299.17,2.12,87,84
Petrodvorets,RU,1592406384,59.88,29.9,299.15,4.0,40,54
Beringovskiy,RU,1592406384,63.05,179.32,281.4,1.47,0,73
East London,ZA,1592406385,-33.02,27.91,292.15,5.7,0,59
Shelburne,CA,1592406385,44.08,-80.2,297.04,2.1,0,40
Borova,UA,1592406385,50.18,30.1,299.15,2.0,20,78
Torbay,CA,1592405849,47.67,-52.73,296.15,7.7,75,33
Arkhangelsk,RU,1592406386,64.54,40.54,290.15,3.0,20,39
Nuevo Progreso,MX,1592406386,23.17,-97.95,302.04,2.37,0,76
Warrington,GB,1592406386,53.39,-2.58,295.93,3.1,99,64
São João da Barra,BR,1592406386,-21.64,-41.05,297.15,6.2,75,60
Faya,SA,1592406387,18.39,42.45,301.15,6.2,75,44
Carnarvon,AU,1592406387,-24.87,113.63,294.15,7.09,90,100
Olinda,BR,1592405816,-8.01,-34.86,301.15,7.2,75,78
Saint-François,FR,1592405885,46.42,3.91,291.15,3.6,29,63
Vangaindrano,MG,1592405901,-23.35,47.6,291.48,2.82,86,76
Baykit,RU,1592406388,61.67,96.37,286.4,1.38,61,63
Vila Velha,BR,1592405885,-20.33,-40.29,297.59,1.0,40,83
Paamiut,GL,1592406389,61.99,-49.67,274.4,0.53,99,94
College,US,1592405840,64.86,-147.8,288.15,2.6,75,76
Caniço,PT,1592406389,32.63,-16.85,296.15,2.1,40,78
Gravdal,NO,1592406390,68.12,13.5,290.15,4.6,33,55
Sitka,US,1592405795,57.05,-135.33,282.15,1.5,75,93
Porto Walter,BR,1592406390,-8.27,-72.74,304.51,0.8,0,51
Muriti,TZ,1592406390,-1.98,32.92,297.52,1.56,0,57
Batemans Bay,AU,1592405900,-35.72,150.18,282.59,1.07,95,90
Fort Nelson,CA,1592406391,58.81,-122.7,284.15,1.0,90,100
Fairbanks,US,1592405702,64.84,-147.72,287.04,1.5,90,76
Bredasdorp,ZA,1592406392,-34.53,20.04,297.15,1.44,0,33
Pevek,RU,1592406392,69.7,170.31,279.69,2.15,99,66
Ribeira Grande,PT,1592406392,38.52,-28.7,294.15,3.6,75,73
Assiniboia,CA,1592406392,49.63,-105.98,286.13,5.68,100,85
Powell River,CA,1592406393,49.85,-124.54,287.59,0.5,20,93
Gisborne,NZ,1592406393,-38.65,178.0,283.71,0.45,99,74
Ixtapa,MX,1592406393,20.7,-105.2,300.93,1.0,20,78
Saint Anthony,US,1592405628,45.02,-93.22,298.71,6.7,1,47
Sayyan,YE,1592406394,15.17,44.32,298.04,1.78,24,18
Hasaki,JP,1592406394,35.73,140.83,293.15,2.1,57,88
San Quintín,MX,1592405826,30.48,-115.95,290.39,2.12,100,78
Balaci,RO,1592406395,44.35,24.92,297.2,2.34,71,62
Natal,BR,1592405860,-5.79,-35.21,298.15,5.1,75,94
Henties Bay,NA,1592406395,-22.12,14.28,298.5,5.65,0,29
Novo Aripuanã,BR,1592406395,-5.12,-60.38,304.29,2.2,5,58
Najrān,SA,1592406327,17.49,44.13,312.15,2.1,40,9
Talnakh,RU,1592405562,69.49,88.4,278.15,3.0,75,93
Trelew,AR,1592406397,-43.25,-65.31,286.69,4.46,98,38
Cayenne,GF,1592406397,4.93,-52.33,303.15,2.1,75,70
Borkenes,NO,1592406398,68.77,16.17,293.15,3.1,1,42
Kaitangata,NZ,1592405814,-46.28,169.85,279.26,3.58,95,81
Tevriz,RU,1592406398,57.51,72.4,288.34,2.02,67,96
Sete Lagoas,BR,1592406399,-19.47,-44.25,291.15,5.1,75,77
Blagoyevo,RU,1592406399,63.37,47.92,286.51,4.01,55,46
Acarí,PE,1592406399,-15.43,-74.62,295.64,3.33,37,45
Lorengau,PG,1592406399,-2.02,147.27,300.07,2.37,4,78
Los Llanos de Aridane,ES,1592405906,28.66,-17.92,299.15,4.6,20,69
Praia,CV,1592405688,14.92,-23.51,302.15,4.1,0,66
Kidal,ML,1592406400,18.44,1.41,317.46,5.98,16,7
Muzhi,RU,1592406400,65.37,64.67,281.97,7.95,60,52
Salinópolis,BR,1592406401,-0.61,-47.36,303.12,4.25,1,64
Béjar,ES,1592406401,40.39,-5.76,295.37,1.0,9,28
Beyneu,KZ,1592406401,45.32,55.2,305.64,5.4,0,11
Nyimba,ZM,1592406401,-14.56,30.81,294.0,2.68,94,41
Lanzhou,CN,1592406402,36.06,103.79,295.37,2.26,0,46
Kampene,CD,1592406402,-3.6,26.67,302.58,0.81,73,43
Porbandar,IN,1592406402,21.64,69.61,303.37,4.97,1,76
Gebre Guracha,ET,1592406403,9.8,38.4,292.96,0.57,82,53
Margate,GB,1592405832,51.38,1.39,292.59,0.89,100,84
Garissa,KE,1592406403,-0.45,39.64,302.61,10.92,34,44
Itarema,BR,1592405876,-2.92,-39.92,302.39,6.5,3,63
Ulaanbaatar,MN,1592406153,47.91,106.88,289.15,2.0,40,55
Elizabethtown,US,1592406200,37.69,-85.86,297.15,4.1,1,47
Alofi,NU,1592405543,-19.06,-169.92,295.15,5.7,100,64
Cajaruro,PE,1592406404,-5.74,-78.43,299.43,1.28,53,62
Coyhaique,CL,1592406361,-45.58,-72.07,276.15,1.28,75,93
Petropavlovsk-Kamchatskiy,RU,1592405859,53.05,158.65,278.15,3.0,90,100
Adrar,MR,1592405584,20.5,-10.07,314.23,11.54,0,12
Trat,TH,1592406405,12.5,102.5,298.14,0.97,100,92
Zhumadian,CN,1592406406,32.98,114.03,291.55,3.53,100,97
Ouadda,CF,1592406406,8.08,22.4,298.87,2.38,87,76
Perth,AU,1592405943,-31.93,115.83,290.37,3.6,40,87
Tuatapere,NZ,1592405844,-46.13,167.68,277.04,1.34,96,83
Yanam,IN,1592406407,16.73,82.22,303.15,4.1,40,74
Mount Isa,AU,1592405820,-20.73,139.5,293.15,3.6,0,40
Pemangkat,ID,1592406407,1.17,108.97,300.66,2.68,23,77
Sibu,MY,1592405889,2.3,111.82,299.15,1.0,75,94
Pak Phanang,TH,1592406408,8.35,100.2,301.66,0.59,100,76
São Filipe,CV,1592405903,14.9,-24.5,297.56,3.7,3,82
Bosaso,SO,1592406408,11.28,49.18,306.82,1.89,71,50
Guerrero Negro,MX,1592406409,27.98,-114.06,291.51,5.39,84,76
Nísia Floresta,BR,1592406409,-6.09,-35.21,298.15,5.1,75,94
Marsaxlokk,MT,1592406409,35.84,14.54,300.15,5.1,0,39
Khartoum,SD,1592406409,15.55,32.53,314.15,3.6,56,15
Anadyr,RU,1592406410,64.75,177.48,279.15,2.0,64,81
Chokurdakh,RU,1592406410,70.63,147.92,291.24,4.85,42,51
Porto-Novo,BJ,1592406186,6.5,2.6,299.15,7.2,20,94
Bud,US,1592406410,39.45,-86.18,299.26,2.1,1,47
Ngama,TD,1592406411,11.78,17.17,308.73,7.52,100,37
Marsh Harbour,BS,1592406411,26.54,-77.06,299.46,4.52,0,75
Te Anau,NZ,1592405865,-45.42,167.72,277.11,2.52,27,91
Dingle,PH,1592406411,11.0,122.67,299.11,1.42,100,79
Longyearbyen,SJ,1592405753,78.22,15.64,277.15,4.6,20,77
Antofagasta,CL,1592406266,-23.65,-70.4,290.15,0.5,8,59
Whyalla,AU,1592406412,-33.03,137.58,279.15,2.6,0,81
Alexandria,EG,1592405936,31.22,29.96,302.15,5.1,0,58
Kumluca,TR,1592406413,36.37,30.29,299.05,3.48,0,52
Novyy Buh,UA,1592406413,47.69,32.52,299.15,5.0,40,54
San Juan,AR,1592406413,-31.54,-68.54,286.7,3.43,42,38
Policoro,IT,1592406413,40.21,16.67,303.15,4.6,40,65
Roanoke Rapids,US,1592406135,36.46,-77.65,293.15,1.5,90,100
Nanyang,CN,1592406311,32.99,112.53,292.2,2.23,100,94
Adeje,ES,1592406414,28.12,-16.73,297.15,4.1,75,73
Kruisfontein,ZA,1592406414,-34.0,24.73,289.01,1.98,0,41
Ladário,BR,1592406415,-19.0,-57.6,301.15,5.7,68,51
Viedma,AR,1592406415,-40.81,-63.0,286.24,3.22,99,56
Mossamedes,AO,1592406415,-15.2,12.15,299.15,7.2,20,69
Koumac,NC,1592406415,-20.57,164.28,294.49,4.49,63,78
Emerald,AU,1592406416,-23.53,148.17,290.15,3.6,40,82
Pochutla,MX,1592406416,15.74,-96.47,303.15,2.15,20,66
Verkhnyaya Inta,RU,1592405900,65.98,60.31,280.07,8.55,99,59
Moose Factory,CA,1592406416,51.26,-80.61,295.15,7.2,20,60
Madīnat Sittah Uktūbar,EG,1592406417,29.82,31.05,314.15,5.1,0,25
Meulaboh,ID,1592405830,4.14,96.13,299.94,1.9,99,78
Husavik,IS,1592406417,66.04,-17.34,287.15,1.5,0,47
Sangar,RU,1592406417,63.92,127.47,289.13,3.04,0,58
Hobyo,SO,1592405896,5.35,48.53,300.73,12.71,99,68
Pointe-Noire,CG,1592406418,-4.78,11.86,299.15,4.6,75,78
Mapimí,MX,1592406418,25.82,-103.85,300.93,2.6,75,44
Makokou,GA,1592406418,0.57,12.86,298.88,0.88,100,88
Pauini,BR,1592406419,-7.71,-66.98,304.51,1.31,0,49
Monrovia,LR,1592406152,6.3,-10.8,301.15,5.7,75,88
Athabasca,CA,1592406388,54.72,-113.29,284.19,3.92,100,94
Narsaq,GL,1592406419,60.92,-46.05,280.15,4.1,75,70
Gao,ML,1592406420,16.64,1.64,316.82,5.1,30,10
Leningradskiy,RU,1592406420,69.38,178.42,279.51,3.87,71,65
Remontnoye,RU,1592406420,46.56,43.65,303.15,6.0,100,22
Fallon,US,1592406421,39.47,-118.78,284.26,3.6,1,38
Melilla,ES,1592406421,35.29,-2.94,302.15,6.2,58,44
Rio Verde de Mato Grosso,BR,1592405861,-18.92,-54.84,301.21,6.66,79,44
Thinadhoo,MV,1592406422,0.53,72.93,302.54,3.27,72,75
Safford,US,1592406422,32.83,-109.71,297.15,2.1,1,15
Acapulco de Juárez,MX,1592405893,16.86,-99.89,302.15,2.6,20,74
Lucea,JM,1592406423,18.45,-78.17,303.15,3.1,20,70
Lata,PT,1592406423,40.16,-8.33,293.71,2.68,0,62
Saldanha,ZA,1592406423,-33.01,17.94,297.15,2.6,0,46
Nome,US,1592405545,64.5,-165.41,290.15,2.1,90,59
Batman,TR,1592406424,37.89,41.13,310.15,2.6,20,20
Mocuba,MZ,1592405840,-16.84,36.99,293.06,1.95,15,81
Muros,ES,1592405837,42.78,-9.06,289.82,3.13,58,73
Ampanihy,MG,1592406424,-24.7,44.75,291.73,6.56,0,61
Merauke,ID,1592406425,-8.47,140.33,298.45,7.55,100,85
Seybaplaya,MX,1592406425,19.65,-90.67,299.15,5.1,40,88
Fukuechō,JP,1592406425,32.69,128.84,294.61,5.09,100,88
Eyl,SO,1592406426,7.98,49.82,305.51,9.98,92,44
Prince Albert,CA,1592406181,53.2,-105.77,286.15,3.6,90,93
Opuwo,NA,1592405838,-18.06,13.84,298.12,6.57,0,21
Forsytheganj,BY,1592406426,52.63,29.73,298.9,5.67,0,68
Nemuro,JP,1592405898,43.32,145.57,284.18,3.61,100,96
Udachny,RU,1592406139,66.42,112.4,288.15,2.0,71,41
Hong Kong,HK,1592405744,22.29,114.16,300.93,1.79,0,78
Mahon,ES,1592406427,39.89,4.27,296.15,5.1,40,53
Mayor Pablo Lagerenza,PY,1592406427,-19.93,-60.77,303.89,8.42,58,42
Hambantota,LK,1592406428,6.12,81.12,303.15,4.6,40,84
Araouane,ML,1592406428,18.9,-3.53,318.79,4.08,0,5
Provideniya,RU,1592406428,64.38,-173.3,284.89,0.53,1,61
Kahului,US,1592406429,20.89,-156.47,298.15,5.1,90,69
Saint George,US,1592406417,37.1,-113.58,297.59,7.7,1,31
Måløy,NO,1592406429,61.94,5.11,297.15,4.6,20,77
Oyama,JP,1592406430,36.3,139.8,298.15,2.1,75,93
Klaksvík,FO,1592406430,62.23,-6.59,284.15,6.2,87,87
Pāsighāt,IN,1592406430,28.07,95.33,299.11,1.27,99,81
Ambilobe,MG,1592406430,-13.2,49.05,296.37,0.74,32,64
Santa Fe,AR,1592406431,-31.63,-60.7,299.82,9.39,95,52
Honiara,SB,1592405883,-9.43,159.95,298.15,1.0,90,94
Fort Beaufort,ZA,1592406431,-32.77,26.63,288.39,2.12,0,33
Muromtsevo,RU,1592406431,56.37,75.24,289.4,3.04,0,71
Oktyabr'skoye,RU,1592406432,43.06,44.74,300.15,6.0,75,57
Dalby,AU,1592406432,-27.18,151.27,283.15,4.53,1,92
Kovernino,RU,1592406432,57.13,43.81,295.55,2.4,27,85
Batagay-Alyta,RU,1592406433,67.8,130.41,288.42,1.99,53,54
Bilibino,RU,1592406433,68.05,166.44,290.08,2.11,99,49
Kysyl-Syr,RU,1592406433,63.9,122.76,291.49,0.76,99,61
Pandan,PH,1592406434,14.05,124.17,300.5,2.38,100,83
Bethel,US,1592406434,41.37,-73.41,295.93,4.6,1,64
Dolores,AR,1592405872,-36.31,-57.68,296.06,9.06,14,70
Gondanglegi,ID,1592406434,-7.75,112.01,297.45,4.04,63,87
Clyde River,CA,1592405888,70.47,-68.59,275.15,5.1,90,74
Nelson Bay,AU,1592406435,-32.72,152.15,290.15,5.7,90,63
Maragogi,BR,1592406436,-9.01,-35.22,299.37,7.69,16,78
Naze,JP,1592406436,28.37,129.48,299.15,4.6,100,100
Aklavik,CA,1592406436,68.22,-135.01,284.15,5.1,75,81
Vilhena,BR,1592406436,-12.74,-60.15,300.15,5.7,0,61
Abhā,SA,1592406437,18.22,42.51,301.15,6.2,75,44
Barcelos,PT,1592406437,41.54,-8.62,293.71,4.6,20,63
Marawi,PH,1592406437,8.0,124.29,294.61,2.08,100,91
Half Moon Bay,US,1592405558,37.46,-122.43,290.37,5.7,1,82
Dongsheng,CN,1592406438,39.82,109.98,291.5,2.45,71,50
Yatou,CN,1592406438,37.15,122.38,292.8,6.32,100,85
Kuli,RU,1592406438,42.02,47.24,300.15,4.1,75,51
Kiryat Gat,IL,1592405846,31.61,34.76,305.93,2.24,0,35
Kirillov,RU,1592406439,59.86,38.38,296.62,1.94,2,59
Laas,IT,1592406439,46.62,10.7,293.15,2.6,75,77
Okhotsk,RU,1592406439,59.38,143.3,279.96,2.6,0,91
Tsimmerbude,RU,1592406439,54.67,20.13,294.15,6.0,0,64
Alyangula,AU,1592405905,-13.85,136.42,295.15,4.7,0,94
Wakkanai,JP,1592406150,45.41,141.67,283.79,1.74,60,91
Znamenskoye,RU,1592406440,57.13,73.83,290.04,3.5,30,86
Krasnosel'kup,RU,1592406440,65.7,82.47,281.63,2.09,100,65
Arawa,PG,1592406441,-6.21,155.54,298.21,1.43,61,80
Iquitos,PE,1592406441,-3.75,-73.25,300.15,2.1,40,83
Touros,BR,1592406441,-5.2,-35.46,298.15,5.1,75,94
Ust'-Omchug,RU,1592406441,61.15,149.63,284.09,1.84,86,77
Beloha,MG,1592406442,-25.17,45.05,291.24,5.47,0,70
Comodoro Rivadavia,AR,1592406442,-45.87,-67.5,279.15,1.0,62,81
Port Lincoln,AU,1592406304,-34.73,135.87,287.19,6.95,0,62
High Level,CA,1592406442,58.52,-117.14,284.15,2.35,75,93
Kemijärvi,FI,1592406443,66.71,27.43,296.32,1.59,0,26
Barra Patuca,HN,1592406443,15.8,-84.28,299.53,4.07,100,86
San Andrés,CO,1592406443,12.58,-81.7,301.15,4.1,90,83
Helong,CN,1592406443,42.54,129.0,288.34,0.88,25,86
High Prairie,CA,1592406444,55.43,-116.49,282.64,1.63,100,97
Makakilo City,US,1592406444,21.35,-158.09,296.15,1.5,1,73
Pontianak,ID,1592406444,-0.03,109.33,298.65,0.91,100,88
Luganville,VU,1592406444,-15.53,167.17,298.41,6.47,96,85
Kralendijk,BQ,1592406445,12.15,-68.27,303.15,8.2,75,62
La Santisima Trinidad,BO,1592406445,-14.83,-64.9,299.15,1.5,0,74
Monte Alegre,BR,1592406445,-2.01,-54.07,302.47,2.17,13,62
Constitución,CL,1592406446,-35.33,-72.42,284.71,4.62,99,84
Barra do Garças,BR,1592406446,-15.89,-52.26,300.15,3.1,0,51
Nkhotakota,MW,1592406446,-12.93,34.3,295.53,4.9,5,54
Arraial do Cabo,BR,1592406446,-22.97,-42.03,298.15,5.1,40,60
Korčula,HR,1592406447,42.96,17.14,294.82,5.7,75,68
Japura,ID,1592406447,-0.32,102.35,297.56,1.06,99,93
Iqaluit,CA,1592406447,63.75,-68.51,277.15,4.6,75,69
Omboué,GA,1592406447,-1.57,9.26,298.21,4.32,83,78
Havøysund,NO,1592406448,71.0,24.66,283.15,5.1,67,75
Nador,MA,1592406247,35.17,-2.93,302.15,6.2,49,44
Doha,QA,1592406378,25.29,51.53,315.15,8.7,8,14
Gizo Government Station,SB,1592406448,-8.1,156.84,301.01,6.87,99,80
Mayo,US,1592406449,38.89,-76.51,292.04,3.6,90,88
Naples,IT,1592406449,40.83,14.25,297.15,4.6,20,64
Cidreira,BR,1592406449,-30.18,-50.21,293.09,4.1,45,75
Tromsø,NO,1592406450,69.65,18.96,289.15,1.5,0,48
Djambala,CG,1592406450,-2.54,14.75,301.03,2.73,97,52
Rāwah,IQ,1592406450,34.48,41.91,311.69,6.27,0,11
Bandarbeyla,SO,1592405888,9.49,50.81,305.36,10.49,99,46
Coquimbo,CL,1592406361,-29.95,-71.34,284.15,3.6,75,81
Byron Bay,AU,1592406451,-28.65,153.62,287.15,3.6,18,82
Florø,NO,1592406451,61.6,5.03,289.15,4.6,20,77
Sabzawār,IR,1592406426,36.21,57.68,307.13,9.85,45,11
Boa Vista,BR,1592406452,2.82,-60.67,301.15,2.1,75,74
Mackenzie,CA,1592406452,55.3,-123.17,284.15,0.43,90,87
Burnie,AU,1592406453,-41.07,145.92,278.15,0.45,53,86
Cockburn Town,TC,1592406453,21.46,-71.14,300.97,8.33,100,80
Sørland,NO,1592406453,67.67,12.69,287.15,4.1,33,67
Atambua,ID,1592406453,-9.11,124.89,294.6,3.33,25,86
Tautira,PF,1592406454,-17.73,-149.15,297.15,2.6,90,94
Basoko,CD,1592406454,1.24,23.62,304.39,1.5,90,51
Solnechnyy,RU,1592405861,50.72,136.63,280.58,2.89,91,87
Haapiti,PF,1592406454,-17.57,-149.87,297.15,2.6,90,94
Kalakamati,BW,1592406455,-20.59,27.31,292.15,5.7,20,42
Olafsvik,IS,1592406455,64.89,-23.71,282.08,3.76,92,79
Cherskiy,RU,1592406455,68.75,161.3,292.42,0.43,89,46
Birao,CF,1592406456,10.28,22.79,305.54,2.35,84,45
Poum,NC,1592405912,-20.23,164.02,296.33,5.89,64,76
Vila Franca do Campo,PT,1592406456,37.72,-25.43,291.15,7.2,75,93
Ulladulla,AU,1592406456,-35.35,150.47,284.26,2.6,90,87
Kiama,AU,1592406457,-34.68,150.87,286.48,0.89,89,89
The Valley,AI,1592406457,18.22,-63.06,303.15,7.7,40,66
Kloulklubed,PW,1592405867,7.04,134.26,299.15,4.02,75,88
La Roche-sur-Yon,FR,1592406177,46.67,-1.43,290.15,5.1,2,72
Novovarshavka,RU,1592406458,54.17,74.69,290.08,0.92,0,55
Biak,ID,1592406458,-0.91,122.88,298.43,2.83,84,84
Şuraabad,AZ,1592406458,40.82,49.47,300.15,4.1,54,51
Boguchany,RU,1592406459,58.38,97.45,284.86,1.6,0,55
Bom Jesus,BR,1592406459,-9.07,-44.36,303.44,4.85,25,42
Adrian,US,1592406437,41.9,-84.04,297.04,2.1,1,46
Mount Gambier,AU,1592406460,-37.83,140.77,280.15,3.1,90,93
Las Vegas,US,1592406245,36.17,-115.14,299.15,3.6,1,15
Ranong,TH,1592406460,9.97,98.63,300.84,2.51,100,77
Villa Carlos Paz,AR,1592406461,-31.42,-64.5,295.37,0.5,39,68
Namatanai,PG,1592406461,-3.67,152.43,299.31,2.52,14,81
Bambanglipuro,ID,1592406461,-7.95,110.28,298.92,5.01,68,86
Kalmunai,LK,1592406461,7.42,81.82,302.97,2.88,78,69
Dabola,GN,1592406462,10.75,-11.12,308.91,0.86,16,43
Tazovsky,RU,1592406462,67.47,78.7,279.06,3.54,30,60
Severo-Yeniseyskiy,RU,1592406462,60.37,93.04,284.01,1.85,88,68
Chingirlau,KZ,1592406462,51.09,54.08,297.77,3.58,4,56
Atbasar,KZ,1592406463,51.8,68.33,292.56,2.09,94,53
Arman',RU,1592406463,59.7,150.17,281.17,1.44,72,87
Guider,CM,1592406463,9.93,13.95,308.15,3.35,40,50
Guánica,PR,1592406463,17.97,-66.91,304.82,3.58,50,51
Tilichiki,RU,1592406464,60.47,166.1,277.9,0.39,14,92
Vao,NC,1592406464,-22.67,167.48,295.7,5.94,37,81
San Patricio,MX,1592406464,19.22,-104.7,299.15,3.1,40,78
Xining,CN,1592405912,36.62,101.77,286.52,0.97,18,58
Kishapu,TZ,1592406465,-3.62,33.87,300.49,3.75,0,32
New Norfolk,AU,1592406466,-42.78,147.06,275.37,1.07,0,87
Rāzām,IN,1592406466,18.47,83.67,303.13,4.37,84,69
Vila,PT,1592406466,42.03,-8.16,292.59,3.6,40,59
Ubari,LY,1592406466,26.59,12.78,308.25,5.63,0,10
Mafinga,TZ,1592406467,-7.25,35.07,298.78,0.17,0,27
Kununurra,AU,1592405891,-15.77,128.73,290.15,1.5,0,38
Sal Rei,CV,1592406467,16.18,-22.92,303.15,7.2,0,55
Nadym,RU,1592406467,65.53,72.52,282.92,5.28,99,48
Tegul'det,RU,1592406468,57.31,88.17,286.1,2.47,0,74
Dhidhdhoo,MV,1592406468,6.88,73.1,302.44,6.62,100,79
Shingū,JP,1592406468,33.73,135.98,293.08,1.14,100,75
Rawson,AR,1592406468,-43.3,-65.1,286.53,4.97,96,46
Ubinskoye,RU,1592406469,55.31,79.68,286.35,1.94,0,74
Caravelas,BR,1592405875,-17.71,-39.25,297.34,5.82,81,64
Granby,CA,1592406453,45.4,-72.73,299.15,4.1,1,47
Madang,PG,1592406469,-5.22,145.8,297.33,1.68,88,87
Cukai,MY,1592406470,4.25,103.42,298.15,1.0,100,100
Inuvik,CA,1592406470,68.35,-133.72,288.15,3.6,75,77
Inongo,CD,1592406471,-1.95,18.27,299.53,1.18,85,47
Kaeo,NZ,1592406471,-35.1,173.78,289.82,2.68,100,3
Sabang,ID,1592406327,5.89,95.32,302.12,4.57,99,77
Cabo San Lucas,MX,1592406436,22.89,-109.91,302.59,3.63,5,28
Canutama,BR,1592406472,-6.53,-64.38,305.46,1.34,0,45
Mongar,BT,1592406472,27.27,91.24,291.21,0.19,99,96
Peleduy,RU,1592406473,59.63,112.74,283.92,1.38,26,84
Vardø,NO,1592406473,70.37,31.11,282.15,6.7,57,70
Mbanza-Ngungu,CD,1592406473,-5.25,14.87,301.89,1.01,3,37
Doka,SD,1592406473,13.52,35.77,305.57,3.78,86,46
Westport,US,1592406474,41.14,-73.36,296.48,4.1,1,60
Kyra,RU,1592406474,49.58,111.98,286.59,2.67,0,61
Santa Cruz de Tenerife,ES,1592406426,28.47,-16.25,295.37,6.7,75,83
Nyurba,RU,1592406474,63.28,118.33,284.09,2.93,97,87
Haines Junction,CA,1592406475,60.75,-137.51,282.67,2.93,37,59
Hattiesburg,US,1592406475,31.33,-89.29,299.82,1.76,1,73
Dzerzhinsk,RU,1592406475,56.24,43.46,295.15,1.0,40,94
Guarapari,BR,1592406475,-20.67,-40.5,297.59,4.4,67,67
Ballybofey,IE,1592406476,54.8,-7.78,289.15,4.1,90,93
Maku,IR,1592406476,39.29,44.45,295.88,3.6,86,48
Popondetta,PG,1592406476,-8.75,148.25,294.96,1.28,100,95
Manicoré,BR,1592406477,-5.81,-61.3,301.15,3.1,75,78
Kyabé,TD,1592406477,9.45,18.94,302.17,1.02,99,57
Longonjo,AO,1592406477,-12.91,15.25,296.15,3.1,0,31
Usinsk,RU,1592406478,65.99,57.53,280.81,9.15,94,57
Seidu,SL,1592406478,9.02,-10.6,298.64,2.6,74,85
Auki,SB,1592406478,-8.77,160.7,298.84,1.78,97,84
Manokwari,ID,1592406478,-0.87,134.08,299.71,2.38,31,77
Sedro-Woolley,US,1592406479,48.5,-122.24,287.15,2.1,90,82
Katunino,RU,1592406479,64.39,40.63,290.15,3.0,20,39
Moindou,NC,1592405881,-21.69,165.68,293.15,1.0,90,82
Srednekolymsk,RU,1592405892,67.45,153.68,294.49,2.43,96,39
Port Hedland,AU,1592406480,-20.32,118.57,292.15,1.87,0,77
Zlobin,HR,1592406480,45.29,14.65,296.48,3.1,40,60
Tambovka,RU,1592406480,50.1,128.05,284.15,0.4,10,93
Labuhan,ID,1592406480,-6.88,112.21,300.06,3.24,71,80
Multai,IN,1592406481,21.77,78.25,299.66,7.03,100,69
Verkhnevilyuysk,RU,1592406481,63.45,120.32,284.54,2.91,68,90
Campo Maior,BR,1592406482,-4.83,-42.17,303.52,4.04,0,51
Klyavlino,RU,1592406482,54.26,52.03,294.02,2.79,98,88
Lo Arado,MX,1592406482,19.62,-104.58,299.15,3.1,40,78
Uruçuí,BR,1592406482,-7.23,-44.56,304.17,5.44,1,46
Humboldt,US,1592406483,40.67,-123.92,286.48,1.5,90,93
Marsá Maţrūḩ,EG,1592406483,31.35,27.25,297.15,7.2,40,64
Sovetsk,RU,1592406483,55.08,21.88,297.01,3.33,39,82
Siavonga,ZM,1592406483,-16.54,28.71,296.2,2.02,48,41
Vikhorevka,RU,1592406484,56.12,101.16,285.15,0.85,0,71
Hihyā,EG,1592406484,30.67,31.59,314.15,5.1,0,22
Gutiérrez Zamora,MX,1592406484,20.45,-97.08,300.15,1.3,5,83
Requena,ES,1592406485,39.49,-1.1,301.48,6.72,48,21
Alice Springs,AU,1592406419,-23.7,133.88,279.15,1.0,0,38
Ambovombe,MG,1592406485,-25.17,46.08,291.94,7.15,0,69
Emporia,US,1592406486,38.4,-96.18,297.15,9.3,1,73
Acaraú,BR,1592406215,-2.89,-40.12,302.39,6.29,12,63
Harrisonburg,US,1592406413,38.45,-78.87,290.15,3.1,90,88
Airai,TL,1592406487,-8.93,125.41,286.31,2.12,9,95
Bereda,ES,1592406487,43.27,-7.54,289.26,1.79,100,94
North Platte,US,1592406487,41.12,-100.77,299.82,5.7,1,57
Vicuña,CL,1592406488,-30.03,-70.71,284.15,3.6,75,81
Kamaishi,JP,1592406488,39.27,141.88,288.92,1.65,0,80
Sukabumi,ID,1592406428,-6.92,106.93,294.82,0.47,44,100
Lakhipur,IN,1592406489,26.03,90.3,300.16,2.64,100,89
Bowen,AU,1592406489,-20.02,148.23,294.26,5.1,90,93
Seymchan,RU,1592406490,62.88,152.43,285.58,0.88,58,85
Lázaro Cárdenas,MX,1592406317,17.96,-102.2,303.12,0.67,0,59
Mahrīz,IR,1592406490,31.59,54.43,311.15,4.1,20,8
Yārāda,IN,1592406490,17.65,83.27,303.15,5.1,40,79
Narok,KE,1592406491,-1.08,35.86,290.57,3.39,33,75
Puerto Gaitán,CO,1592406255,4.31,-72.08,300.16,2.51,63,79
Tietê,BR,1592406491,-23.1,-47.71,295.15,2.6,0,60
Tigre,AR,1592406491,-34.43,-58.58,297.15,9.8,100,64
Andapa,MG,1592406492,-14.65,49.65,289.18,1.63,48,85
Kanata,CA,1592406332,45.32,-75.9,299.26,1.5,20,49
Joshīmath,IN,1592406492,30.57,79.57,292.22,0.45,45,53
Belaya Gora,RU,1592405899,68.53,146.42,293.91,1.16,0,37
São Francisco,BR,1592406493,-15.95,-44.86,299.01,4.53,49,47
Raudeberg,NO,1592406493,61.99,5.14,297.15,4.6,20,77
Çubuk,TR,1592406390,40.24,33.03,296.15,4.1,75,49
Codrington,AU,1592406494,-38.27,141.97,279.32,3.81,25,86
Yulara,AU,1592406494,-25.24,130.99,283.15,2.6,0,34
Prince Rupert,CA,1592406494,54.32,-130.32,283.15,1.13,40,87
Gáldar,ES,1592406495,28.15,-15.65,299.26,4.6,75,78
Yüksekova,TR,1592406495,37.57,44.29,305.15,2.1,20,18
Assiut,EG,1592406495,27.18,31.18,317.15,5.1,0,20
Pakxan,LA,1592406496,18.38,103.66,297.55,0.92,100,93
Eureka,US,1592406431,40.8,-124.16,287.04,2.0,0,100
Sistranda,NO,1592406497,63.73,8.83,293.15,5.7,20,72
Taoudenni,ML,1592406497,22.68,-3.98,318.65,8.38,0,6
Pendleton,US,1592406307,45.67,-118.79,287.59,5.7,90,62
Kiunga,PG,1592406497,-6.12,141.29,294.43,0.27,98,98
Ucluelet,CA,1592406498,48.93,-125.55,285.93,1.0,90,100
Sharjah city,AE,1592406498,25.36,55.4,309.15,3.6,0,60
Mutsu,JP,1592406498,41.29,141.22,289.15,1.0,40,82
Kargasok,RU,1592406499,59.06,80.86,289.86,4.0,0,64
Asău,RO,1592406499,46.43,26.4,293.15,1.15,100,81
Lucapa,AO,1592406499,-8.42,20.74,301.25,3.17,0,25
Lokosovo,RU,1592406500,61.13,74.82,281.96,5.23,100,91
Hamadan,IR,1592406500,34.8,48.51,302.3,4.83,5,14
Laguna,US,1592406485,38.42,-121.42,293.15,7.7,1,42
Dakar,SN,1592406501,14.69,-17.44,303.15,3.1,0,74
Kanadukathan,IN,1592406501,10.18,78.78,303.15,4.1,75,66
Severomuysk,RU,1592406501,56.15,113.43,278.32,1.25,28,83
Norfolk,US,1592406338,42.17,-71.25,298.71,1.5,1,49
Sterling,US,1592406502,39.01,-77.43,293.71,5.1,75,72
San Vicente,AR,1592406502,-26.62,-54.13,296.16,4.3,0,60
Clonmel,IE,1592406502,52.35,-7.7,291.48,0.45,93,74
Huzhou,CN,1592406503,30.87,120.09,306.48,0.49,99,68
Batagay,RU,1592406503,67.63,134.63,291.19,2.44,34,47
Otane,NZ,1592406503,-39.88,176.63,281.48,0.82,100,93
Ugoofaaru,MV,1592406504,5.67,73.0,302.24,5.44,100,82
Diapaga,BF,1592406504,12.07,1.79,310.59,3.73,81,36
Qasigiannguit,GL,1592406504,68.82,-51.19,277.15,2.6,75,69
Hofn,IS,1592406504,64.25,-15.21,283.02,3.47,0,65
Ingham,US,1592406437,42.6,-84.38,296.15,4.1,1,43
Bingerville,CI,1592406505,5.36,-3.89,301.15,8.2,75,83
Nizhniy Odes,RU,1592406505,63.64,54.86,283.05,5.46,86,49
Tot'ma,RU,1592406505,59.97,42.76,292.85,2.35,0,48
Chase,CA,1592406506,50.82,-119.69,285.93,1.13,0,86
Grand-Lahou,CI,1592406506,5.14,-5.02,299.69,6.56,60,87
Iaçu,BR,1592406482,-12.77,-40.21,302.6,5.29,12,39
Tooele,US,1592406507,40.53,-112.3,284.15,3.1,1,76
Khovd,MN,1592406507,48.01,91.64,292.7,1.49,82,42
Vega de Alatorre,MX,1592406508,20.03,-96.63,301.3,2.22,0,67
Dekar,BW,1592406508,-21.53,21.93,293.74,4.35,0,31
Verkhoyansk,RU,1592406508,67.54,133.38,291.81,2.95,48,49
Catalão,BR,1592406508,-18.17,-47.95,296.23,6.27,0,56
Kissidougou,GN,1592406509,9.18,-10.1,301.18,2.97,28,75
